[
  {
    "id": 1,
    "latitude": "-20.5",
    "longitude": "134.233",
    "title": "DevilsMarbles",
    "imageUrl": "http://lurinfacts.ch/lurins/devilsmarble.jpg",
    "country": "Australien"
  },
  {
    "id": 2,
    "latitude": "-38.680",
    "longitude": "143.391",
    "title": "GreatOceanRoad",
    "imageUrl": "http://lurinfacts.ch/lurins/greatOceanRoad.jpg",
    "country": "Victoria"
  },
  {
    "id": 3,
    "latitude": "-16.263",
    "longitude": "133.375",
    "title": "DalyWatersPub",
    "imageUrl": "http://lurinfacts.ch/lurins/daly.jpg",
    "country": "Australien"
  },
  {
    "id": 4,
    "latitude": "-30.647",
    "longitude": "115.211",
    "title": "ThePinnacles",
    "imageUrl": "http://lurinfacts.ch/lurins/pinnacle.jpg",
    "country": "Australien"
  },
  {
    "id": 5,
    "latitude": "-33.859",
    "longitude": "121.893",
    "title": "Esperance",
    "imageUrl": "http://lurinfacts.ch/lurins/esperance.jpg",
    "country": "Australien"
  },
  {
    "id": 6,
    "latitude": "44.816",
    "longitude": "20.466",
    "title": "BelgradFortress",
    "imageUrl": "http://lurinfacts.ch/lurins/BelgradeFortress.jpg",
    "country": ""
  },
  {
    "id": 7,
    "latitude": "55.676",
    "longitude": "12.568",
    "title": "Kopenhagen",
    "imageUrl": "http://lurinfacts.ch/lurins/copenhagen.jpg",
    "country": "Denmark"
  }
]